<gps>SSU-01,$GPGGA,,,,,,0,00,99.99,,,,,,*48</gps>
<sensor>SSU-01,,Baro,100596,Temp,21.20,Hum,70.83,Temp2,19.78,AcelX,0.0902,AcelY,0.1373,AcelZ,0.9882,MagX,-144,MagY,89,MagZ,-567</sensor>
<gps>SSU-01,$GPGGA,,,,,,0,00,99.99,,,,,,*48</gps>
<sensor>SSU-01,Baro,100597,Temp,21.20,Hum,69.92,Temp2,19.77,AcelX,0.0980,AcelY,0.1333,AcelZ,0.9961,MagX,-143,MagY,86,MagZ,-566</sensor>
<gps>SSU-01,$GPGGA,,,,,,0,00,99.99,,,,,,*48</gps>
<sensor>SSU-01,Baro,100593,Temp,21.20,Hum,69.40,Temp2,19.78,AcelX,0.1020,AcelY,0.1255,AcelZ,0.9922,MagX,-143,MagY,88,MagZ,-563</sensor>
<gps>SSU-01,$GPGGA,,,,,,0,00,99.99,,,,,,*48</gps>
<sensor>SSU-01,Baro,100593,Temp,21.20,Hum,69.27,Temp2,19.80,AcelX,0.0980,AcelY,0.1333,AcelZ,0.9922,MagX,-147,MagY,87,MagZ,-567</sensor>
<gps>SSU-01,$GPGGA,154246.54,,,,,0,00,99.99,,,,,,*67</gps>
<sensor>SSU-01,Baro,100592,Temp,21.20,Hum,69.18,Temp2,19.78,AcelX,0.0980,AcelY,0.1216,AcelZ,0.9961,MagX,-144,MagY,87,MagZ,-565</sensor>
<gps>SSU-01,$GPGGA,154247.00,,,,,$GPGGA,154248.00,,,,,0,00,99.99,,,,,,*68</gps>
<sensor>SSU-01,Baro,100592,Temp,21.20,Hum,69.25,Temp2,19.81,AcelX,0.1412,AcelY,0.0431,AcelZ,1.0275,MagX,-125,MagY,93,MagZ,-568</sensor>
<gps>SSU-01,$GPGGA,154249.00,,,,,0,00,99.99,,,,,,*69</gps>
<sensor>SSU-01,Baro,100596,Temp,21.10,Hum,69.14,Temp2,19.80,AcelX,0.1608,AcelY,0.1294,AcelZ,1.0863,MagX,-130,MagY,94,MagZ,-566</sensor>
<gps>SSU-01,$GPGGA,154251.00,,,,,0,00,$GPGGA,154252.00,,,,,0,00,99.99,,,,,,*63</gps>
<sensor>SSU-01,Baro,100596,Temp,21.10,Hum,69.47,Temp2,19.78,AcelX,0.0510,AcelY,0.1451,AcelZ,1.1373,MagX,-84,MagY,102,MagZ,-572</sensor>
<gps>SSU-01,$GPGGA,154253.00,,,,,0,00,99.99,,,,,,*62</gps>
<sensor>SSU-01,Baro,100586,Temp,21.00,Hum,69.94,Temp2,19.75,AcelX,-0.1059,AcelY,0.4431,AcelZ,1.1882,MagX,70,MagY,121,MagZ,-600</sensor>
<gps>SSU-01,$GPGGA,154254.00,,,,,0,00,99.99,,,,,,*65</gps>
<sensor>SSU-01,Baro,100579,Temp,21.00,Hum,69.81,Temp2,19.57,AcelX,0.7294,AcelY,-0.1451,AcelZ,0.9412,MagX,165,MagY,138,MagZ,-602</sensor>
<gps>SSU-01,$GPGGA,154256.00,,,,,0,00,99.99$GPGGA,154257.00,,,,,0,00,99.99,,,,,,*66</gps>
<sensor>SSU-01,Baro,100582,Temp,21.00,Hum,69.33,Temp2,19.49,AcelX,0.3922,AcelY,0.8392,AcelZ,1.2941,MagX,146,MagY,142,MagZ,-602</sensor>
<gps>SSU-01,$GPGGA,154258.00,,,,,0,00,99.99,,,,,,*69</gps>
<sensor>SSU-01,Baro,100567,Temp,20.90,Hum,68.92,Temp2,19.46,AcelX,-0.1765,AcelY,0.4314,AcelZ,1.8667,MagX,350,MagY,143,MagZ,-565</sensor>
<gps>SSU-01,$GPGGA,154300.00,,,,,0$GPGGA,154301.00,,,,,0,00,99.99,,,,,,*64</gps>
<sensor>SSU-01,Baro,100568,Temp,20.80,Hum,68.12,Temp2,19.47,AcelX,0.6510,AcelY,0.0275,AcelZ,1.5255,MagX,105,MagY,132,MagZ,-604</sensor>
<gps>SSU-01,$GPGGA,154302.00,,,,,0,00,99.99,,,,,,*67</gps>
<sensor>SSU-01,Baro,100576,Temp,20.70,Hum,67.47,Temp2,19.40,AcelX,-0.0824,AcelY,0.7608,AcelZ,0.9569,MagX,127,MagY,138,MagZ,-602</sensor>
<gps>SSU-01,$GPGGA,154305.00,3757.70211,N,12146.58992,W,1,05,3.94,62.4,M,-28.8,M,,*50</gps>
<sensor>SSU-01,Baro,100581,Temp,20.70,Hum,67.20,Temp2,19.35,AcelX,0.0314,AcelY,0.3608,AcelZ,0.3059,MagX,148,MagY,-26,MagZ,-643</sensor>
<gps>SSU-01,$GPGGA,154308.00,3757.70240,N,12146.59454,W,1,04,4.06,63.9,M,-28.8,M,,*5E</gps>
<sensor>SSU-01,Baro,100560,Temp,20.70,Hum,67.33,Temp2,19.33,AcelX,0.4196,AcelY,0.6588,AcelZ,1.6863,MagX,70,MagY,133,MagZ,-593</sensor>
<gps>SSU-01,$GPGGA,154311.00,3757.70179,N,12146.59515,W,1,04,4.06,66.9,M,-28.8,M,,*5E</gps>
<sensor>SSU-01,Baro,100547,Temp,20.60,Hum,67.30,Temp2,19.23,AcelX,0.2706,AcelY,0.0039,AcelZ,0.8902,MagX,154,MagY,131,MagZ,-603</sensor>
<gps>SSU-01,$GPGGA,154314.00,3757.70134,N,12146.59624,W,1,04,4.06,65.0,M,-28.8,M,,*59</gps>
<sensor>SSU-01,Baro,100537,Temp,20.60,Hum,66.74,Temp2,19.12,AcelX,-0.0510,AcelY,-0.0431,AcelZ,-0.1922,MagX,102,MagY,121,MagZ,-603</sensor>
<gps>SSU-01,$GPGGA,154317.00,3757.70138,N,12146.59673,W,1,04,4.06,63.7,M,-28.8,M,,*55</gps>
<sensor>SSU-01,Baro,100537,Temp,20.60,Hum,66.28,Temp2,19.09,AcelX,-0.2471,AcelY,0.6157,AcelZ,0.6902,MagX,104,MagY,133,MagZ,-597</sensor>
<gps>SSU-01,$GPGGA,154320.00,3757.70149,N,12146.59647,W,1,04,4.06,64.1,M,-28.8,M,,*51</gps>
<sensor>SSU-01,Baro,100552,Temp,20.60,Hum,65.91,Temp2,19.03,AcelX,0.4549,AcelY,-0.1529,AcelZ,0.4196,MagX,107,MagY,145,MagZ,-594</sensor>
<gps>SSU-01,$GPGGA,154323.00,3757.70129,N,12146.59652,W,1,04,4.06,64.7,M,-28.8,M,,*56</gps>
<sensor>SSU-01,Baro,100549,Temp,20.50,Hum,65.84,Temp2,18.95,AcelX,-0.0863,AcelY,-0.0039,AcelZ,1.1059,MagX,110,MagY,128,MagZ,-598</sensor>
<gps>SSU-01,$GPGGA,154326.00,3757.70096,N,12146.59665,W,1,04,4.06,65.5,M,-28.8,M,,*51</gps>
<sensor>SSU-01,Baro,100549,Temp,20.50,Hum,65.97,Temp2,18.89,AcelX,-0.1922,AcelY,0.3451,AcelZ,1.0431,MagX,93,MagY,137,MagZ,-596</sensor>
<gps>SSU-01,$GPGGA,154329.00,3757.70098,N,12146.59813,W,1,05,2.50,64.7,M,-28.8,M,,*58</gps>
<sensor>SSU-01,Baro,100550,Temp,20.40,Hum,66.08,Temp2,18.85,AcelX,-0.0784,AcelY,-0.2510,AcelZ,0.6392,MagX,99,MagY,119,MagZ,-611</sensor>
<gps>SSU-01,$GPGGA,154332.00,3757.70138,N,12146.59944,W,1,05,2.51,65.0,M,-28.8,M,,*5D</gps>
<sensor>SSU-01,Baro,100541,Temp,20.40,Hum,66.05,Temp2,18.68,AcelX,0.4784,AcelY,-0.6392,AcelZ,-0.5098,MagX,461,MagY,-218,MagZ,-581</sensor>
<gps>SSU-01,$GPGGA,154335.00,3757.70232,N,12146.60022,W,1,05,2.51,63.7,M,-28.8,M,,*51</gps>
<sensor>SSU-01,Baro,100544,Temp,20.30,Hum,66.02,Temp2,18.60,AcelX,0.0902,AcelY,0.5059,AcelZ,1.5608,MagX,459,MagY,-208,MagZ,-571</sensor>
<gps>SSU-01,$GPGGA,154338.00,3757.70227,N,12146.60068,W,1,05,2.51,61.8,M,-28.8,M,,*5B</gps>
<sensor>SSU-01,Baro,100556,Temp,20.20,Hum,66.29,Temp2,18.60,AcelX,0.5961,AcelY,0.6196,AcelZ,1.8078,MagX,401,MagY,-190,MagZ,-613</sensor>
<gps>SSU-01,$GPGGA,154341.00,3757.70177,N,12146.60084,W,1,05,2.51,58.8,M,-28.8,M,,*5B</gps>
<sensor>SSU-01,Baro,100571,Temp,20.10,Hum,66.10,Temp2,18.50,AcelX,0.0157,AcelY,-1.0196,AcelZ,-0.0549,MagX,404,MagY,-313,MagZ,-597</sensor>
<gps>SSU-01,$GPGGA,154344.00,3757.70263,N,12146.60075,W,1,05,2.51,57.6,M,-28.8,M,,*57</gps>
<sensor>SSU-01,Baro,100586,Temp,20.00,Hum,66.51,Temp2,18.40,AcelX,0.4824,AcelY,0.3020,AcelZ,1.4235,MagX,400,MagY,-157,MagZ,-592</sensor>
<gps>SSU-01,$GPGGA,154347.00,3757.70315,N,12146.60062,W,1,05,2.51,56.1,M,-28.8,M,,*54</gps>
<sensor>SSU-01,Baro,100587,Temp,19.90,Hum,68.30,Temp2,18.36,AcelX,0.3020,AcelY,-0.5255,AcelZ,0.8667,MagX,397,MagY,-230,MagZ,-601</sensor>
<gps>SSU-01,$GPGGA,154350.00,3757.70307,N,12146.59950,W,1,05,2.51,55.3,M,-28.8,M,,*52</gps>
<sensor>SSU-01,Baro,100562,Temp,19.80,Hum,70.67,Temp2,18.40,AcelX,-0.0549,AcelY,0.2196,AcelZ,0.5294,MagX,407,MagY,-175,MagZ,-600</sensor>
<gps>SSU-01,$GPGGA,154353.00,3757.70234,N,12146.59967,W,1,05,2.51,53.3,M,-28.8,M,,*52</gps>
<sensor>SSU-01,Baro,100564,Temp,19.80,Hum,70.39,Temp2,18.34,AcelX,-0.7098,AcelY,-0.7765,AcelZ,0.1373,MagX,440,MagY,-277,MagZ,-587</sensor>
<gps>SSU-01,$GPGGA,154356.00,3757.70232,N,12146.59949,W,1,05,2.51,52.9,M,-28.8,M,,*56</gps>
<sensor>SSU-01,Baro,100562,Temp,19.70,Hum,69.37,Temp2,18.31,AcelX,0.0235,AcelY,-0.9373,AcelZ,1.3529,MagX,402,MagY,-172,MagZ,-590</sensor>
<gps>SSU-01,$GPGGA,154359.00,3757.70179,N,12146.59880,W,1,06,1.44,57.9,M,-28.8,M,,*50</gps>
<sensor>SSU-01,Baro,100569,Temp,19.70,Hum,69.28,Temp2,18.30,AcelX,0.4353,AcelY,0.0863,AcelZ,0.2471,MagX,398,MagY,-223,MagZ,-617</sensor>
<gps>SSU-01,$GPGGA,154402.00,3757.70143,N,12146.59931,W,1,06,1.44,60.9,M,-28.8,M,,*5F</gps>
<sensor>SSU-01,Baro,100587,Temp,19.70,Hum,69.80,Temp2,18.36,AcelX,0.1373,AcelY,0.7529,AcelZ,1.1333,MagX,420,MagY,-195,MagZ,-592</sensor>
<gps>SSU-01,$GPGGA,154405.00,3757.70102,N,12146.59905,W,1,08,1.10,66.0,M,-28.8,M,,*5A</gps>
<sensor>SSU-01,Baro,100539,Temp,19.60,Hum,70.36,Temp2,18.40,AcelX,0.6000,AcelY,0.1843,AcelZ,0.6941,MagX,444,MagY,-190,MagZ,-598</sensor>
<gps>SSU-01,$GPGGA,154408.00,3757.70110,N,12146.59801,W,1,08,1.10,65.0,M,-28.8,M,,*52</gps>
<sensor>SSU-01,Baro,100509,Temp,19.60,Hum,70.71,Temp2,18.40,AcelX,0.2863,AcelY,0.3765,AcelZ,1.3961,MagX,391,MagY,-211,MagZ,-615</sensor>
<gps>SSU-01,$GPGGA,154411.00,3757.70034,N,12146.59781,W,1,08,1.10,64.2,M,-28.8,M,,*59</gps>
<sensor>SSU-01,Baro,100517,Temp,19.40,Hum,69.40,Temp2,18.28,AcelX,0.7647,AcelY,-1.0549,AcelZ,0.0745,MagX,442,MagY,-206,MagZ,-595</sensor>
<gps>SSU-01,$GPGGA,154414.00,3757.70075,N,12146.59695,W,1,08,1.10,64.3,M,-28.8,M,,*5C</gps>
<sensor>SSU-01,Baro,100529,Temp,19.30,Hum,68.41,Temp2,18.10,AcelX,-0.4196,AcelY,0.8196,AcelZ,2.0039,MagX,516,MagY,-196,MagZ,-536</sensor>
<gps>SSU-01,$GPGGA,154417.00,3757.70094,N,12146.59682,W,1,08,1.10,62.5,M,-28.8,M,,*56</gps>
<sensor>SSU-01,Baro,100521,Temp,19.20,Hum,68.06,Temp2,17.95,AcelX,0.2706,AcelY,-0.2314,AcelZ,0.4549,MagX,365,MagY,-173,MagZ,-603</sensor>
<gps>SSU-01,$GPGGA,154420.00,3757.70094,N,12146.59672,W,1,08,1.10,60.7,M,-28.8,M,,*5D</gps>
<sensor>SSU-01,Baro,100547,Temp,19.10,Hum,68.12,Temp2,17.90,AcelX,0.4627,AcelY,-0.6980,AcelZ,0.3412,MagX,395,MagY,-193,MagZ,-615</sensor>
<gps>SSU-01,$GPGGA,154423.00,3757.70068,N,12146.59690,W,1,08,1.10,60.5,M,-28.8,M,,*53</gps>
<sensor>SSU-01,Baro,100550,Temp,19.00,Hum,68.43,Temp2,17.92,AcelX,0.5843,AcelY,-0.8588,AcelZ,0.9490,MagX,406,MagY,-177,MagZ,-604</sensor>
<gps>SSU-01,$GPGGA,154426.00,3757.70059,N,12146.59743,W,1,08,1.10,60.3,M,-28.8,M,,*5D</gps>
<sensor>SSU-01,Baro,100548,Temp,19.00,Hum,68.19,Temp2,17.80,AcelX,0.3137,AcelY,0.2157,AcelZ,1.6314,MagX,405,MagY,-175,MagZ,-618</sensor>
<gps>SSU-01,$GPGGA,154429.00,3757.70150,N,12146.60172,W,1,08,1.10,59.9,M,-28.8,M,,*54</gps>
<sensor>SSU-01,Baro,100561,Temp,18.90,Hum,68.28,Temp2,17.80,AcelX,-0.0980,AcelY,-0.4980,AcelZ,0.9569,MagX,376,MagY,-108,MagZ,-607</sensor>
<gps>SSU-01,$GPGGA,154432.00,3757.70119,N,12146.60558,W,1,08,1.10,59.7,M,-28.8,M,,*51</gps>
<sensor>SSU-01,Baro,100565,Temp,18.90,Hum,68.15,Temp2,17.85,AcelX,0.0431,AcelY,0.0941,AcelZ,1.2588,MagX,387,MagY,-136,MagZ,-611</sensor>
<gps>SSU-01,$GPGGA,154435.00,3757.70046,N,12146.60884,W,1,08,1.10,59.7,M,-28.8,M,,*51</gps>
<sensor>SSU-01,Baro,100564,Temp,18.80,Hum,67.92,Temp2,17.83,AcelX,0.7725,AcelY,0.3451,AcelZ,0.5843,MagX,361,MagY,-138,MagZ,-612</sensor>
<gps>SSU-01,$GPGGA,154438.00,3757.69886,N,12146.60840,W,1,08,1.10,60.1,M,-28.8,M,,*54</gps>
<sensor>SSU-01,Baro,100577,Temp,18.80,Hum,67.69,Temp2,17.76,AcelX,-0.0471,AcelY,0.6431,AcelZ,2.0039,MagX,426,MagY,-330,MagZ,-583</sensor>
<gps>SSU-01,$GPGGA,154441.00,3757.70040,N,12146.60558,W,1,08,1.10,59.8,M,-28.8,M,,*57</gps>
<sensor>SSU-01,Baro,100575,Temp,18.70,Hum,67.62,Temp2,17.73,AcelX,-0.2824,AcelY,-0.7255,AcelZ,0.1529,MagX,569,MagY,-145,MagZ,-510</sensor>
<gps>SSU-01,$GPGGA,154444.00,3757.70143,N,12146.60301,W,1,08,1.10,60.1,M,-28.8,M,,*59</gps>
<sensor>SSU-01,Baro,100574,Temp,18.70,Hum,67.85,Temp2,17.63,AcelX,0.4588,AcelY,0.2235,AcelZ,0.7765,MagX,402,MagY,-117,MagZ,-611</sensor>
<gps>SSU-01,$GPGGA,154447.00,3757.70146,N,12146.59986,W,1,08,1.10,60.4,M,-28.8,M,,*55</gps>
<sensor>SSU-01,Baro,100575,Temp,18.60,Hum,68.59,Temp2,17.62,AcelX,-0.0118,AcelY,0.5176,AcelZ,1.8510,MagX,424,MagY,-270,MagZ,-587</sensor>
<gps>SSU-01,$GPGGA,154450.00,3757.70176,N,12146.59857,W,1,08,1.10,60.6,M,-28.8,M,,*5F</gps>
<sensor>SSU-01,Baro,100347,Temp,17.70,Hum,69.42,Temp2,17.62,AcelX,0.1529,AcelY,0.2078,AcelZ,1.6275,MagX,273,MagY,102,MagZ,-613</sensor>
<gps>SSU-01,$GPGGA,154453.00,3757.70090,N,12146.59762,W,1,09,1.10,60.0,M,-28.8,M,,*5B</gps>
<sensor>SSU-01,Baro,100569,Temp,18.60,Hum,69.75,Temp2,17.65,AcelX,0.2941,AcelY,0.2706,AcelZ,0.6706,MagX,195,MagY,108,MagZ,-609</sensor>
<gps>SSU-01,$GPGGA,154456.00,3757.69988,N,12146.59732,W,1,09,1.10,59.2,M,-28.8,M,,*5B</gps>
<sensor>SSU-01,Baro,100559,Temp,18.60,Hum,69.81,Temp2,17.65,AcelX,0.0471,AcelY,0.5294,AcelZ,1.4000,MagX,69,MagY,137,MagZ,-589</sensor>
<gps>SSU-01,$GPGGA,154459.00,3757.69951,N,12146.59696,W,1,09,1.10,58.9,M,-28.8,M,,*55</gps>
<sensor>SSU-01,Baro,100574,Temp,18.70,Hum,70.25,Temp2,17.62,AcelX,-0.2941,AcelY,0.6588,AcelZ,1.1843,MagX,183,MagY,98,MagZ,-617</sensor>
<gps>SSU-01,$GPGGA,154502.00,3757.70004,N,12146.59682,W,1,09,1.10,58.6,M,-28.8,M,,*51</gps>
<sensor>SSU-01,Baro,100568,Temp,18.70,Hum,70.85,Temp2,17.66,AcelX,-0.1804,AcelY,-0.0314,AcelZ,0.6275,MagX,226,MagY,162,MagZ,-584</sensor>
<gps>SSU-01,$GPGGA,154505.00,3757.70014,N,12146.59652,W,1,09,1.10,59.0,M,-28.8,M,,*5D</gps>
<sensor>SSU-01,Baro,100577,Temp,18.70,Hum,71.33,Temp2,17.72,AcelX,0.5725,AcelY,0.3020,AcelZ,0.5373,MagX,146,MagY,97,MagZ,-615</sensor>
<gps>SSU-01,$GPGGA,154508.00,3757.70205,N,12146.59416,W,1,09,1.10,58.0,M,-28.8,M,,*51</gps>
<sensor>SSU-01,Baro,100571,Temp,18.70,Hum,72.24,Temp2,17.75,AcelX,0.5529,AcelY,-0.4510,AcelZ,0.8078,MagX,128,MagY,167,MagZ,-583</sensor>
<gps>SSU-01,$GPGGA,154511.00,3757.70262,N,12146.59230,W,1,09,1.10,57.8,M,-28.8,M,,*5D</gps>
<sensor>SSU-01,Baro,100588,Temp,18.70,Hum,73.11,Temp2,17.75,AcelX,-0.3176,AcelY,0.2039,AcelZ,1.0157,MagX,116,MagY,103,MagZ,-620</sensor>
<gps>SSU-01,$GPGGA,154514.00,3757.70303,N,12146.58819,W,1,09,1.10,59.6,M,-28.8,M,,*5E</gps>
<sensor>SSU-01,Baro,100568,Temp,18.70,Hum,72.68,Temp2,17.71,AcelX,0.3647,AcelY,0.6118,AcelZ,0.3412,MagX,401,MagY,175,MagZ,-555</sensor>
<gps>SSU-01,$GPGGA,154517.00,3757.70400,N,12146.58976,W,1,09,0.91,60.1,M,-28.8,M,,*54</gps>
<sensor>SSU-01,Baro,100562,Temp,18.70,Hum,72.07,Temp2,17.75,AcelX,0.5529,AcelY,0.0627,AcelZ,0.5843,MagX,422,MagY,119,MagZ,-571</sensor>
<gps>SSU-01,$GPGGA,154520.00,3757.70412,N,12146.58904,W,1,09,0.91,61.6,M,-28.8,M,,*50</gps>
<sensor>SSU-01,Baro,100562,Temp,18.60,Hum,71.88,Temp2,17.71,AcelX,0.2627,AcelY,-0.5137,AcelZ,0.4941,MagX,352,MagY,179,MagZ,-556</sensor>
<gps>SSU-01,$GPGGA,154523.00,3757.70624,N,12146.59124,W,1,09,0.91,62.4,M,-28.8,M,,*5E</gps>
<sensor>SSU-01,Baro,100556,Temp,18.60,Hum,72.07,Temp2,17.65,AcelX,0.4706,AcelY,0.2431,AcelZ,1.2039,MagX,160,MagY,97,MagZ,-605</sensor>
<gps>SSU-01,$GPGGA,154526.00,3757.70854,N,12146.59278,W,1,09,0.91,62.3,M,-28.8,M,,*5F</gps>
<sensor>SSU-01,Baro,100534,Temp,18.60,Hum,72.91,Temp2,17.66,AcelX,0.2235,AcelY,0.1765,AcelZ,1.1098,MagX,-192,MagY,61,MagZ,-542</sensor>
<gps>SSU-01,$GPGGA,154529.00,3757.70870,N,12146.59404,W,1,09,0.91,60.1,M,-28.8,M,,*5B</gps>
<sensor>SSU-01,Baro,100525,Temp,18.60,Hum,72.51,Temp2,17.68,AcelX,0.4314,AcelY,-0.4000,AcelZ,0.0431,MagX,-163,MagY,-163,MagZ,-563</sensor>
<gps>SSU-01,$GPGGA,154532.00,3757.70555,N,12146.59531,W,1,09,0.91,59.0,M,-28.8,M,,*57</gps>
<sensor>SSU-01,Baro,100549,Temp,18.50,Hum,71.78,Temp2,17.65,AcelX,-0.0431,AcelY,-1.1137,AcelZ,0.3333,MagX,-21,MagY,-131,MagZ,-630</sensor>
<gps>SSU-01,$GPGGA,154535.00,3757.70249,N,12146.59507,W,1,10,0.84,59.2,M,-28.8,M,,*51</gps>
<sensor>SSU-01,Baro,100566,Temp,18.40,Hum,71.08,Temp2,17.59,AcelX,-0.0275,AcelY,1.1373,AcelZ,2.0039,MagX,-194,MagY,-146,MagZ,-551</sensor>
<gps>SSU-01,$GPGGA,154538.00,3757.70092,N,12146.59462,W,1,10,0.84,56.9,M,-28.8,M,,*5E</gps>
<sensor>SSU-01,Baro,100566,Temp,18.20,Hum,70.89,Temp2,17.48,AcelX,1.0431,AcelY,1.1098,AcelZ,1.8078,MagX,-259,MagY,-118,MagZ,-515</sensor>
<gps>SSU-01,$GPGGA,154541.00,3757.70087,N,12146.59416,W,1,10,0.84,56.7,M,-28.8,M,,*59</gps>
<sensor>SSU-01,Baro,100581,Temp,18.20,Hum,70.39,Temp2,17.40,AcelX,0.1804,AcelY,-0.1020,AcelZ,0.3490,MagX,-184,MagY,-170,MagZ,-568</sensor>
<gps>SSU-01,$GPGGA,154544.00,3757.69923,N,12146.59495,W,1,10,0.84,58.0,M,-28.8,M,,*51</gps>
<sensor>SSU-01,Baro,100588,Temp,18.10,Hum,70.29,Temp2,17.30,AcelX,-0.4588,AcelY,0.8157,AcelZ,1.1647,MagX,-185,MagY,-143,MagZ,-571</sensor>
<gps>SSU-01,$GPGGA,154547.00,3757.69808,N,12146.59555,W,1,10,0.84,58.6,M,-28.8,M,,*51</gps>
<sensor>SSU-01,Baro,100589,Temp,18.10,Hum,71.48,Temp2,17.28,AcelX,-0.2549,AcelY,-1.1725,AcelZ,0.7647,MagX,-127,MagY,-164,MagZ,-579</sensor>
<gps>SSU-01,$GPGGA,154550.00,3757.69759,N,12146.59564,W,1,10,0.84,58.7,M,-28.8,M,,*5F</gps>
<sensor>SSU-01,Baro,100583,Temp,18.10,Hum,72.16,Temp2,17.30,AcelX,-0.4863,AcelY,0.0235,AcelZ,0.7451,MagX,-222,MagY,-154,MagZ,-538</sensor>
<gps>SSU-01,$GPGGA,154553.00,3757.69786,N,12146.59540,W,2,10,0.84,58.8,M,-28.8,M,,0000*54</gps>
<sensor>SSU-01,Baro,100618,Temp,18.10,Hum,72.28,Temp2,17.27,AcelX,-0.0314,AcelY,0.4549,AcelZ,0.2039,MagX,-367,MagY,-203,MagZ,-526</sensor>
<gps>SSU-01,$GPGGA,154556.00,3757.69789,N,12146.59534,W,2,10,0.84,58.9,M,-28.8,M,,0000*5C</gps>
<sensor>SSU-01,Baro,100609,Temp,18.10,Hum,73.25,Temp2,17.31,AcelX,0.3137,AcelY,0.0510,AcelZ,1.0118,MagX,-427,MagY,-229,MagZ,-517</sensor>
<gps>SSU-01,$GPGGA,154559.00,3757.69769,N,12146.59544,W,2,10,0.84,58.8,M,-28.8,M,,0000*5B</gps>
<sensor>SSU-01,Baro,100591,Temp,18.10,Hum,75.54,Temp2,17.34,AcelX,0.1725,AcelY,0.1765,AcelZ,0.9490,MagX,-482,MagY,-236,MagZ,-516</sensor>
<gps>SSU-01,$GPGGA,154602.00,3757.69760,N,12146.59556,W,2,10,0.84,58.7,M,-28.8,M,,0000*53</gps>
<sensor>SSU-01,Baro,100598,Temp,18.20,Hum,77.07,Temp2,17.38,AcelX,0.1412,AcelY,0.1490,AcelZ,0.9765,MagX,-482,MagY,-240,MagZ,-516</sensor>
<gps>SSU-01,$GPGGA,154605.00,3757.69740,N,12146.59577,W,2,10,0.84,59.4,M,-28.8,M,,0000*57</gps>
<sensor>SSU-01,Baro,100594,Temp,18.20,Hum,77.79,Temp2,17.42,AcelX,0.1412,AcelY,0.1451,AcelZ,0.9765,MagX,-480,MagY,-237,MagZ,-515</sensor>
<gps>SSU-01,$GPGGA,154608.00,3757.69719,N,12146.59577,W,2,10,0.84,60.1,M,-28.8,M,,0000*59</gps>
<sensor>SSU-01,Baro,100592,Temp,18.20,Hum,77.58,Temp2,17.44,AcelX,0.1294,AcelY,0.1255,AcelZ,1.0118,MagX,-461,MagY,-238,MagZ,-512</sensor>
<gps>SSU-01,$GPGGA,154611.00,3757.69704,N,12146.59590,W,2,10,0.84,60.9,M,-28.8,M,,0000*5C</gps>
<sensor>SSU-01,Baro,100611,Temp,18.30,Hum,77.73,Temp2,17.47,AcelX,0.1373,AcelY,0.1961,AcelZ,0.8078,MagX,-439,MagY,-228,MagZ,-516</sensor>
<gps>SSU-01,$GPGGA,154614.00,3757.69710,N,12146.59603,W,2,10,0.84,61.2,M,-28.8,M,,0000*5F</gps>
<sensor>SSU-01,Baro,100599,Temp,18.30,Hum,78.16,Temp2,17.50,AcelX,0.1176,AcelY,0.1216,AcelZ,1.2000,MagX,-440,MagY,-236,MagZ,-519</sensor>
<gps>SSU-01,$GPGGA,154617.00,3757.69804,N,12146.59618,W,2,10,0.84,61.1,M,-28.8,M,,0000*5F</gps>
<sensor>SSU-01,Baro,100579,Temp,18.20,Hum,78.61,Temp2,17.50,AcelX,0.2510,AcelY,-0.0235,AcelZ,0.5765,MagX,115,MagY,122,MagZ,-593</sensor>
<gps>SSU-01,$GPGGA,154620.00,3757.69815,N,12146.59525,W,2,10,0.84,70.8,M,-28.8,M,,0000*5F</gps>
<sensor>SSU-01,Baro,100523,Temp,18.20,Hum,77.67,Temp2,17.41,AcelX,-0.2784,AcelY,-0.0745,AcelZ,0.6078,MagX,328,MagY,176,MagZ,-600</sensor>
<gps>SSU-01,$GPGGA,154623.00,3757.69955,N,12146.59374,W,2,10,0.84,74.0,M,-28.8,M,,0000*57</gps>
<sensor>SSU-01,Baro,100424,Temp,18.20,Hum,76.17,Temp2,17.41,AcelX,-0.0314,AcelY,-0.4863,AcelZ,1.4627,MagX,153,MagY,134,MagZ,-604</sensor>
<gps>SSU-01,$GPGGA,154626.00,3757.70038,N,12146.59304,W,2,10,0.84,73.4,M,-28.8,M,,0000*5C</gps>
<sensor>SSU-01,Baro,100351,Temp,18.10,Hum,74.42,Temp2,17.44,AcelX,0.2588,AcelY,0.3490,AcelZ,0.9176,MagX,97,MagY,114,MagZ,-589</sensor>
<gps>SSU-01,$GPGGA,154629.00,3757.70083,N,12146.59335,W,2,10,0.84,72.5,M,-28.8,M,,0000*51</gps>
<sensor>SSU-01,Baro,100376,Temp,18.20,Hum,73.02,Temp2,17.42,AcelX,-0.3333,AcelY,1.3137,AcelZ,1.3490,MagX,125,MagY,111,MagZ,-598</sensor>
<gps>SSU-01,$GPGGA,154632.00,3757.70056,N,12146.59385,W,2,10,0.84,71.6,M,-28.8,M,,0000*58</gps>
<sensor>SSU-01,Baro,100361,Temp,18.10,Hum,72.04,Temp2,17.42,AcelX,-0.4353,AcelY,-0.1922,AcelZ,1.3686,MagX,112,MagY,99,MagZ,-593</sensor>
<gps>SSU-01,$GPGGA,154635.00,3757.70029,N,12146.59436,W,2,10,0.84,70.0,M,-28.8,M,,0000*5F</gps>
<sensor>SSU-01,Baro,100413,Temp,18.10,Hum,71.48,Temp2,17.30,AcelX,0.5020,AcelY,-0.8784,AcelZ,0.5412,MagX,160,MagY,106,MagZ,-591</sensor>
<gps>SSU-01,$GPGGA,154638.00,3757.69943,N,12146.59469,W,2,10,0.84,66.9,M,-28.8,M,,0000*5B</gps>
<sensor>SSU-01,Baro,100460,Temp,18.10,Hum,71.43,Temp2,17.33,AcelX,0.2824,AcelY,0.6706,AcelZ,1.1765,MagX,129,MagY,99,MagZ,-609</sensor>
<gps>SSU-01,$GPGGA,154641.00,3757.69867,N,12146.59490,W,2,10,0.84,62.9,M,-28.8,M,,0000*50</gps>
<sensor>SSU-01,Baro,100496,Temp,18.00,Hum,71.46,Temp2,17.31,AcelX,0.2275,AcelY,0.7686,AcelZ,0.9843,MagX,114,MagY,118,MagZ,-593</sensor>
<gps>SSU-01,$GPGGA,154644.00,3757.69842,N,12146.59515,W,2,10,0.84,60.0,M,-28.8,M,,0000*55</gps>
<sensor>SSU-01,Baro,100554,Temp,17.90,Hum,71.25,Temp2,17.23,AcelX,0.4510,AcelY,-0.2471,AcelZ,0.6275,MagX,142,MagY,80,MagZ,-617</sensor>
<gps>SSU-01,$GPGGA,154647.00,3757.69854,N,12146.59498,W,2,10,0.84,59.9,M,-28.8,M,,0000*56</gps>
<sensor>SSU-01,Baro,100580,Temp,17.90,Hum,70.86,Temp2,17.24,AcelX,-1.1922,AcelY,1.6157,AcelZ,1.1686,MagX,186,MagY,106,MagZ,-598</sensor>
<gps>SSU-01,$GPGGA,154650.00,3757.69846,N,12146.59515,W,2,10,0.84,59.4,M,-28.8,M,,0000*5A</gps>
<sensor>SSU-01,Baro,100602,Temp,17.90,Hum,70.99,Temp2,17.23,AcelX,-0.0196,AcelY,0.6078,AcelZ,1.0275,MagX,-43,MagY,77,MagZ,-586</sensor>
<gps>SSU-01,$GPGGA,154653.00,3757.69853,N,12146.59539,W,2,10,0.84,59.7,M,-28.8,M,,0000*50</gps>
<sensor>SSU-01,Baro,100592,Temp,17.90,Hum,72.21,Temp2,17.18,AcelX,0.1451,AcelY,-0.0118,AcelZ,0.5373,MagX,-61,MagY,61,MagZ,-592</sensor>
<gps>SSU-01,$GPGGA,154656.00,3757.69853,N,12146.59583,W,2,10,0.84,59.4,M,-28.8,M,,0000*57</gps>
<sensor>SSU-01,Baro,100598,Temp,18.00,Hum,74.32,Temp2,17.18,AcelX,0.1176,AcelY,0.1294,AcelZ,0.9961,MagX,-138,MagY,58,MagZ,-584</sensor>
<gps>SSU-01,$GPGGA,154659.00,3757.69852,N,12146.59595,W,2,10,0.84,59.0,M,-28.8,M,,0000*5A</gps>
<sensor>SSU-01,Baro,100595,Temp,18.00,Hum,75.82,Temp2,17.20,AcelX,0.1137,AcelY,0.1569,AcelZ,0.9804,MagX,-133,MagY,62,MagZ,-586</sensor>

